[
    {
        "name": "Domino´s Pizza",
        "address": "Av G Godoy 125, La Vega, República Dominicana",
        "phone": "(809) 242-1515",
        "website": null,
        "category": "Restaurant",
        "rating": null,
        "hours": null,
        "location": null
    },
    {
        "name": "Panadería-Pizzería Las Palmas",
        "address": "C Batista 1, La Vega, República Dominicana",
        "phone": "(809) 242-1212",
        "website": null,
        "category": "Restaurant",
        "rating": null,
        "hours": null,
        "location": null
    },
    {
        "name": "Boli Boli Restaurant",
        "address": "Ave La Confluencia 1, Jarabacoa 41000, República Dominicana",
        "phone": "(809) 574-2164",
        "website": null,
        "category": "Restaurant",
        "rating": null,
        "hours": null,
        "location": null
    },
    {
        "name": "Algusto",
        "address": "C/ Turey, el Cacique, Santo Domingo, República Dominicana",
        "phone": "(809) 508-1730",
        "website": null,
        "category": "Restaurant",
        "rating": null,
        "hours": null,
        "location": null
    },
    {
        "name": "Churchs Chicken",
        "address": "Plaza Royal, Local 201, Av.M Gomez, esq.J Contreras, Santo Domingo, República Dominicana",
        "phone": "(809) 221-3283",
        "website": null,
        "category": "Restaurant",
        "rating": null,
        "hours": null,
        "location": null
    },
    {
        "name": "Pizza Hut",
        "address": "C Convención L-B1-1, Puerto Plata, República Dominicana",
        "phone": "(809) 320-2000",
        "website": null,
        "category": "Restaurant",
        "rating": null,
        "hours": null,
        "location": null
    },
    {
        "name": "DiversionDominicana",
        "address": "Av. Franco bido S/n Edif. J & G, Nibaje, Santiago, República Dominicana",
        "phone": "(809) 839-1243",
        "website": null,
        "category": "Restaurant",
        "rating": null,
        "hours": null,
        "location": null
    },
    {
        "name": "Mediterráneo Ristorante Gourmet",
        "address": "Ave. Enriquillo #52, Los Cacicazgos, Sto.Dgo. RD, Santo Domingo, República Dominicana",
        "phone": "(849) 936-3900",
        "website": null,
        "category": "Restaurant",
        "rating": null,
        "hours": null,
        "location": null
    },
    {
        "name": "Panda Express",
        "address": "Av.27 de febrero No.237, Ens. Naco, Santo Domingo, República Dominicana",
        "phone": "(809) 566-1566",
        "website": null,
        "category": "Restaurant",
        "rating": null,
        "hours": null,
        "location": null
    },
    {
        "name": "El Mesón de Daysi",
        "address": "J de Morfa 88, Santo Domingo, República Dominicana",
        "phone": "(809) 333-6797",
        "website": null,
        "category": "Restaurant",
        "rating": null,
        "hours": null,
        "location": null
    },
    {
        "name": "Mirian Buffets",
        "address": "Juan XIII 18, Santo Domingo, República Dominicana",
        "phone": "(809) 540-0921",
        "website": null,
        "category": "Restaurant",
        "rating": null,
        "hours": null,
        "location": null
    },
    {
        "name": "Deco-Buffet",
        "address": "Calle 2B, No.5 Ens.Paraiso, Santo Domingo, República Dominicana",
        "phone": "(809) 542-6556",
        "website": null,
        "category": "Restaurant",
        "rating": null,
        "hours": null,
        "location": null
    },
    {
        "name": "El Mesón de la Cava",
        "address": "Ave. Mirador del Sur 1, Santo Domingo, República Dominicana",
        "phone": "(809) 533-4840",
        "website": null,
        "category": "Restaurant",
        "rating": null,
        "hours": null,
        "location": null
    },
    {
        "name": "El Meson de la Cava",
        "address": "Av. Mirador del Sur, Santo Domingo, República Dominicana",
        "phone": "(809) 533-2818",
        "website": null,
        "category": "Restaurant",
        "rating": null,
        "hours": null,
        "location": null
    },
    {
        "name": "Restaurant Vesuvio",
        "address": "Av. G Washington 523, Santo Domingo, República Dominicana",
        "phone": "(809) 221-3000",
        "website": null,
        "category": "Restaurant",
        "rating": null,
        "hours": null,
        "location": null
    },
    {
        "name": "Ana Lebrón Linea Gourmet",
        "address": "M Simón 6 A, Santo Domingo, República Dominicana",
        "phone": "(809) 412-0161",
        "website": null,
        "category": "Restaurant",
        "rating": null,
        "hours": null,
        "location": null
    },
    {
        "name": "Ana Lebrón Linea Gourmet",
        "address": "G M Ricart 126, Santo Domingo, República Dominicana",
        "phone": "(809) 412-0161",
        "website": null,
        "category": "Restaurant",
        "rating": null,
        "hours": null,
        "location": null
    },
    {
        "name": "Caffe Milano",
        "address": "Av. Tiradentes 11, Santo Domingo, República Dominicana",
        "phone": "(809) 540-3000",
        "website": null,
        "category": "Restaurant",
        "rating": null,
        "hours": null,
        "location": null
    },
    {
        "name": "Centro De Comida Empresarial",
        "address": "2-B No 5, Paraíso, Santo Domingo, República Dominicana",
        "phone": "(809) 544-1343",
        "website": null,
        "category": "Restaurant",
        "rating": null,
        "hours": null,
        "location": null
    },
    {
        "name": "Culinary Consulting, S A",
        "address": "Zafiro 9, Santo Domingo, República Dominicana",
        "phone": "(809) 530-8979",
        "website": null,
        "category": "Service",
        "rating": null,
        "hours": null,
        "location": null
    },
    {
        "name": "Sam’s transfer DR",
        "address": "Calle castillo Márquez, La Romana",
        "phone": "(829) 910-0689",
        "website": null,
        "category": "Service",
        "rating": null,
        "hours": null,
        "location": null
    },
    {
        "name": "Fresco Auto Aire",
        "address": "Cno. de Buena Vista 102, Santiago de los Caballeros",
        "phone": "(829) 979-5398",
        "website": null,
        "category": "Service",
        "rating": null,
        "hours": null,
        "location": null
    },
    {
        "name": "AUTOS & MECANICA R.S. S.R.L.",
        "address": "C.PROYECTO 5 DETRÁS DE ONAPI PRÓXIMO A INTEC, LOS JARDINES DEL NORTE, Santo Domingo",
        "phone": "(829) 893-1770",
        "website": null,
        "category": "Service",
        "rating": "5.01 Reseña",
        "hours": null,
        "location": null
    },
    {
        "name": "WHATS TAXIS",
        "address": "CALLE JACINTO DE LOS SANTOS ESQ. CALLE TERMINAL ESSO, LOS MAMEYES, SANTO DOMINGO ESTE",
        "phone": "(829) 489-0500",
        "website": null,
        "category": "Service",
        "rating": null,
        "hours": null,
        "location": null
    },
    {
        "name": "FURGONES DEL CARIBE",
        "address": "Aut Duarte Km 18 1/2 Sd, Santo Domingo",
        "phone": "(809) 560-7626",
        "website": null,
        "category": "Service",
        "rating": null,
        "hours": null,
        "location": null
    },
    {
        "name": "MÚSICA DEL CIBAO, C. POR A",
        "address": "Av San Martín No. 125, Villa Juana, Santo Domingo",
        "phone": "(809) 689-6466",
        "website": null,
        "category": "Service",
        "rating": null,
        "hours": null,
        "location": null
    },
    {
        "name": "POCHY IEROMAZZO. S.A",
        "address": "Av 27 De Febrero Esq. Bartolomé Colón, Plaza Gorge, Ens. La Julia, Santiago",
        "phone": "(809) 241-3358",
        "website": null,
        "category": "Service",
        "rating": null,
        "hours": null,
        "location": null
    },
    {
        "name": "Clínica De Frenos",
        "address": "Av Rivas 127, La Vega",
        "phone": "(809) 573-7977",
        "website": null,
        "category": "Service",
        "rating": null,
        "hours": null,
        "location": null
    },
    {
        "name": "Listin Autos",
        "address": "Calle Cayetano Rodriguez #163. Suite 1-A, Gazcue, Santo Domingo",
        "phone": "(809) 616-1250",
        "website": null,
        "category": "Service",
        "rating": null,
        "hours": null,
        "location": null
    },
    {
        "name": "Indufricción, S.R.L",
        "address": "Ave.27 de Ferero No.6, Villa Francisca, Santo Domingo",
        "phone": "(809) 685-2992",
        "website": null,
        "category": "Service",
        "rating": null,
        "hours": null,
        "location": null
    },
    {
        "name": "Claro Taxi",
        "address": "Av Mexico 40, Santo Domingo",
        "phone": "(809) 597-7777",
        "website": null,
        "category": "Service",
        "rating": null,
        "hours": null,
        "location": null
    },
    {
        "name": "Mundo Vidrio",
        "address": "Av 27 de Febrero 78, Santiago",
        "phone": "(809) 575-1376",
        "website": null,
        "category": "Service",
        "rating": null,
        "hours": null,
        "location": null
    },
    {
        "name": "Repuestos y Servicios Fausto",
        "address": "Autopista Duarte km 4 1/2, Frente a la Peugeot, Santiago",
        "phone": "(809) 570-6158",
        "website": null,
        "category": "Service",
        "rating": null,
        "hours": null,
        "location": null
    },
    {
        "name": "Paulino Sierra Express Auto Import SRL",
        "address": "CALL PELONA 9 AROYO HONDO III, Santo Domingo",
        "phone": "(829) 580-2130",
        "website": null,
        "category": "Service",
        "rating": null,
        "hours": null,
        "location": null
    },
    {
        "name": "Comercial Santana, S. R. L.",
        "address": "M Montez 20, Santo Domingo",
        "phone": "(809) 688-5151",
        "website": null,
        "category": "Service",
        "rating": null,
        "hours": null,
        "location": null
    },
    {
        "name": "Jaime Méndez Sucs, C por A",
        "address": "Av San Martín 98, Santo Domingo",
        "phone": "(809) 565-8861",
        "website": null,
        "category": "Service",
        "rating": null,
        "hours": null,
        "location": null
    },
    {
        "name": "Leony Truck Parts",
        "address": "Prol Av Independencia 33, Santo Domingo",
        "phone": "(809) 531-6880",
        "website": null,
        "category": "Service",
        "rating": null,
        "hours": null,
        "location": null
    },
    {
        "name": "Machuca Racing Team",
        "address": "Av Ch Summer 13, Santo Domingo",
        "phone": "(809) 565-5393",
        "website": null,
        "category": "Service",
        "rating": null,
        "hours": null,
        "location": null
    },
    {
        "name": "Payless Car Rental",
        "address": "Aut L Américas Km 22 1/2, Santo Domingo",
        "phone": "(809) 549-0492",
        "website": null,
        "category": "Service",
        "rating": null,
        "hours": null,
        "location": null
    },
    {
        "name": "Laboratorio De Patología- Biología Molecular Dr Bolívar García",
        "address": "Ave. Ortega y Gasset No. 100, Santo Domingo, República Dominicana",
        "phone": "(809) 227-7527",
        "website": null,
        "category": "Service",
        "rating": "5.03 Reseñas",
        "hours": null,
        "location": null
    },
    {
        "name": "Custodio G, Miguel",
        "address": "F Richiez 24, La Romana, República Dominicana",
        "phone": "(809) 550-3271",
        "website": null,
        "category": "Service",
        "rating": "5.02 Reseñas",
        "hours": null,
        "location": null
    },
    {
        "name": "Núñez Hernández Medical Center (Centro Médico Núñez Hernández)",
        "address": "C. Mella 48, Cotuí 43000, Cotui, República Dominicana",
        "phone": "(809) 585-2901",
        "website": null,
        "category": "Service",
        "rating": null,
        "hours": null,
        "location": null
    },
    {
        "name": "Laboratorio de Paternidad y Patologia Dr. Bolivar Garcia",
        "address": "Centro Medico Dr. Bournigal, Puerto Plata, República Dominicana",
        "phone": "(809) 586-6985",
        "website": null,
        "category": "Service",
        "rating": null,
        "hours": null,
        "location": null
    },
    {
        "name": "Médico Reumatólogo - Dra. Ingrit Mercedes",
        "address": "Av. Juan XXIII # 115. Clínica Dr. Perozo. La Altagracia – Higuey, Rep. Dom., República Dominicana",
        "phone": "(809) 746-3825",
        "website": null,
        "category": "Service",
        "rating": null,
        "hours": null,
        "location": null
    },
    {
        "name": "Laboratorio De Patología Dr Bolívar García",
        "address": "J Dumit, Santiago, República Dominicana",
        "phone": "(809) 583-6232",
        "website": null,
        "category": "Service",
        "rating": null,
        "hours": null,
        "location": null
    },
    {
        "name": "Refugio Colosenses 3 14",
        "address": "La Cienaga, Santiago, República Dominicana",
        "phone": "(829) 771-4592",
        "website": null,
        "category": "Service",
        "rating": null,
        "hours": null,
        "location": null
    },
    {
        "name": "Cedisa San Juan",
        "address": "C de Leones 63, San Juan de la Maguana, República Dominicana",
        "phone": "(809) 557-5712",
        "website": null,
        "category": "Service",
        "rating": null,
        "hours": null,
        "location": null
    },
    {
        "name": "CEMEDI",
        "address": "J Cabrera 70, Santo Domingo, República Dominicana",
        "phone": "(809) 699-2786",
        "website": null,
        "category": "Service",
        "rating": null,
        "hours": null,
        "location": null
    },
    {
        "name": "Centro Diagnostico Especializado Cedisa E Imágenes Cedisa",
        "address": "P I Espaillat 55, Santo Domingo, República Dominicana",
        "phone": "(809) 687-1103",
        "website": null,
        "category": "Service",
        "rating": null,
        "hours": null,
        "location": null
    },
    {
        "name": "Centro Médico Integral II",
        "address": "Carr Mella 1, Santo Domingo, República Dominicana",
        "phone": "(809) 788-6336",
        "website": null,
        "category": "Service",
        "rating": null,
        "hours": null,
        "location": null
    },
    {
        "name": "Centro Médico Dr Batista",
        "address": "C de Lora 35, Santiago, República Dominicana",
        "phone": "(809) 233-7070",
        "website": null,
        "category": "Service",
        "rating": null,
        "hours": null,
        "location": null
    },
    {
        "name": "Centro Médico La Altagracia-Dr Eduardo Martínez",
        "address": "Av Los Jazmines 213, Santiago, República Dominicana",
        "phone": "(809) 724-6010",
        "website": null,
        "category": "Service",
        "rating": null,
        "hours": null,
        "location": null
    },
    {
        "name": "Centro Médico Dr Pérez",
        "address": "G F Deligne 31-B, Nagua, República Dominicana",
        "phone": "(809) 584-3710",
        "website": null,
        "category": "Service",
        "rating": null,
        "hours": null,
        "location": null
    },
    {
        "name": "Centro Materno Infantil y Especialidades Bonao",
        "address": "Duarte 427, Bonao, República Dominicana",
        "phone": "(809) 525-7537",
        "website": null,
        "category": "Service",
        "rating": null,
        "hours": null,
        "location": null
    },
    {
        "name": "Clínica La Concepción",
        "address": "B Gómez 5, La Vega, República Dominicana",
        "phone": "(809) 573-0022",
        "website": null,
        "category": "Service",
        "rating": null,
        "hours": null,
        "location": null
    },
    {
        "name": "Diamond Plaza",
        "address": "Av Los Próceres 38, Santo Domingo",
        "phone": "(809) 566-0265",
        "website": null,
        "category": "Business",
        "rating": null,
        "hours": null,
        "location": null
    },
    {
        "name": "Giron Jimenez, Raul Alejandro",
        "address": "Av 25 de Febrero 622, Santo Domingo",
        "phone": "(829) 766-2560",
        "website": null,
        "category": "Business",
        "rating": null,
        "hours": null,
        "location": null
    },
    {
        "name": "Centro Comercial Unicentro Plaza",
        "address": "Av A Lincoln 406, Santo Domingo",
        "phone": "(809) 541-8232",
        "website": null,
        "category": "Business",
        "rating": null,
        "hours": null,
        "location": null
    },
    {
        "name": "Plaza Taveras Center",
        "address": "Carr Mella 1, Higuey",
        "phone": "(809) 746-1140",
        "website": null,
        "category": "Business",
        "rating": null,
        "hours": null,
        "location": null
    },
    {
        "name": "Intercentro Trade Center, C A",
        "address": "Av L de Vega 27, Santo Domingo",
        "phone": "(809) 549-5815",
        "website": null,
        "category": "Business",
        "rating": null,
        "hours": null,
        "location": null
    },
    {
        "name": "Novo-Centro",
        "address": "Av L de Vega 27, Santo Domingo",
        "phone": "(809) 549-5815",
        "website": null,
        "category": "Business",
        "rating": null,
        "hours": null,
        "location": null
    },
    {
        "name": "Plaza Imán, C x A",
        "address": "Av España 70, Santo Domingo",
        "phone": "(809) 414-3444",
        "website": null,
        "category": "Business",
        "rating": null,
        "hours": null,
        "location": null
    },
    {
        "name": "Acrópolis Center (Condominio Centro Comercial Acropolis)",
        "address": "W Churchill, Santo Domingo",
        "phone": "(809) 955-2020",
        "website": null,
        "category": "Business",
        "rating": null,
        "hours": null,
        "location": null
    },
    {
        "name": "Palma Real Shopping Village",
        "address": "Carr Cortecito 1, Higuey",
        "phone": "(809) 552-8725",
        "website": null,
        "category": "Business",
        "rating": null,
        "hours": null,
        "location": null
    },
    {
        "name": "Plaza Lucitania",
        "address": "Las Galeras 1, Samana",
        "phone": "(809) 538-0093",
        "website": null,
        "category": "Business",
        "rating": null,
        "hours": null,
        "location": null
    },
    {
        "name": "Plaza.Com",
        "address": "Av Duarte 424, Santo Domingo",
        "phone": "(809) 937-8539",
        "website": null,
        "category": "Business",
        "rating": null,
        "hours": null,
        "location": null
    },
    {
        "name": "Restaurante BI JH 2 0",
        "address": "Playa Bávaro, Higuey",
        "phone": "(809) 552-6011",
        "website": null,
        "category": "Restaurant",
        "rating": null,
        "hours": null,
        "location": null
    },
    {
        "name": "Sierra Parima, S A",
        "address": "Carr Cortecito 1, Higuey",
        "phone": "(809) 552-8725",
        "website": null,
        "category": "Business",
        "rating": null,
        "hours": null,
        "location": null
    },
    {
        "name": "Acercom",
        "address": "Alexander Fleming 108, Santo Domingo",
        "phone": "(809) 338-0083",
        "website": null,
        "category": "Business",
        "rating": null,
        "hours": null,
        "location": null
    },
    {
        "name": "AC Video",
        "address": "Av Helios 139, Santo Domingo",
        "phone": "(809) 412-8634",
        "website": null,
        "category": "Business",
        "rating": null,
        "hours": null,
        "location": null
    },
    {
        "name": "Administración de Condominios Malecón Center",
        "address": "Av G Washington, Santo Domingo",
        "phone": "(809) 412-7441",
        "website": null,
        "category": "Service",
        "rating": null,
        "hours": null,
        "location": null
    },
    {
        "name": "Administración del Consorcio de Propietarios de Condominios de Plaza Central",
        "address": "Av 27 de Febrero, Santo Domingo",
        "phone": "(809) 872-0353",
        "website": null,
        "category": "Service",
        "rating": null,
        "hours": null,
        "location": null
    },
    {
        "name": "Adrián Plaza",
        "address": "S Bolívar 8, Santo Domingo",
        "phone": "(809) 599-7503",
        "website": null,
        "category": "Business",
        "rating": null,
        "hours": null,
        "location": null
    },
    {
        "name": "Agua Liana",
        "address": "Av C De Gaulle 17, Santo Domingo",
        "phone": "(809) 701-4745",
        "website": null,
        "category": "Business",
        "rating": null,
        "hours": null,
        "location": null
    },
    {
        "name": "Almonte P, Lissette M",
        "address": "14 No 1, L Girasoles I, Santo Domingo",
        "phone": "(809) 331-5214",
        "website": null,
        "category": "Business",
        "rating": null,
        "hours": null,
        "location": null
    },
    {
        "name": "Domino´s Pizza",
        "address": "Av G Godoy 125, La Vega, República Dominicana",
        "phone": "(809) 242-1515",
        "website": null,
        "category": "Restaurant",
        "rating": null,
        "hours": null,
        "location": null
    },
    {
        "name": "Panadería-Pizzería Las Palmas",
        "address": "C Batista 1, La Vega, República Dominicana",
        "phone": "(809) 242-1212",
        "website": null,
        "category": "Restaurant",
        "rating": null,
        "hours": null,
        "location": null
    },
    {
        "name": "Boli Boli Restaurant",
        "address": "Ave La Confluencia 1, Jarabacoa 41000, República Dominicana",
        "phone": "(809) 574-2164",
        "website": null,
        "category": "Restaurant",
        "rating": null,
        "hours": null,
        "location": null
    },
    {
        "name": "Algusto",
        "address": "C/ Turey, el Cacique, santo domingo, República Dominicana",
        "phone": "(809) 508-1730",
        "website": null,
        "category": "Restaurant",
        "rating": null,
        "hours": null,
        "location": null
    },
    {
        "name": "Churchs Chicken",
        "address": "Plaza Royal, Local 201, Av.M Gomez, esq.J Contreras, Santo Domingo, República Dominicana",
        "phone": "(809) 221-3283",
        "website": null,
        "category": "Restaurant",
        "rating": null,
        "hours": null,
        "location": null
    },
    {
        "name": "Pizza Hut",
        "address": "C Convención L-B1-1, Puerto Plata, República Dominicana",
        "phone": "(809) 320-2000",
        "website": null,
        "category": "Restaurant",
        "rating": null,
        "hours": null,
        "location": null
    },
    {
        "name": "DiversionDominicana",
        "address": "Av. Franco bido S/n Edif. J & G, Nibaje, Santiago de los Caballeros, Santiago, República Dominicana",
        "phone": "(809) 839-1243",
        "website": null,
        "category": "Restaurant",
        "rating": null,
        "hours": null,
        "location": null
    },
    {
        "name": "Mediterráneo Ristorante Gourmet",
        "address": "Ave. Enriquillo #52, Los Cacicazgos, Sto.Dgo. RD, Santo Domingo, República Dominicana",
        "phone": "(849) 936-3900",
        "website": null,
        "category": "Restaurant",
        "rating": null,
        "hours": null,
        "location": null
    },
    {
        "name": "Panda Express",
        "address": "Av.27 de febrero No.237, Ens. Naco, Santo Domingo, República Dominicana",
        "phone": "(809) 566-1566",
        "website": null,
        "category": "Restaurant",
        "rating": null,
        "hours": null,
        "location": null
    },
    {
        "name": "El Mesón de Daysi",
        "address": "J de Morfa 88, Santo Domingo, República Dominicana",
        "phone": "(809) 333-6797",
        "website": null,
        "category": "Restaurant",
        "rating": null,
        "hours": null,
        "location": null
    },
    {
        "name": "Mirian Buffets",
        "address": "Juan XIII 18, Santo Domingo, República Dominicana",
        "phone": "(809) 540-0921",
        "website": null,
        "category": "Restaurant",
        "rating": null,
        "hours": null,
        "location": null
    },
    {
        "name": "Deco-Buffet",
        "address": "Calle 2B, No.5 Ens.Paraiso, Santo Domingo, República Dominicana",
        "phone": "(809) 542-6556",
        "website": null,
        "category": "Restaurant",
        "rating": null,
        "hours": null,
        "location": null
    },
    {
        "name": "El Mesón de la Cava",
        "address": "Ave. Mirador del Sur 1, Santo Domingo, República Dominicana",
        "phone": "(809) 533-4840",
        "website": null,
        "category": "Restaurant",
        "rating": null,
        "hours": null,
        "location": null
    },
    {
        "name": "Restaurant Vesuvio",
        "address": "Av. G Washington 523, Santo Domingo, República Dominicana",
        "phone": "(809) 221-3000",
        "website": null,
        "category": "Restaurant",
        "rating": null,
        "hours": null,
        "location": null
    },
    {
        "name": "Ana Lebrón Linea Gourmet",
        "address": "M Simón 6 A, Santo Domingo, República Dominicana",
        "phone": "(809) 412-0161",
        "website": null,
        "category": "Restaurant",
        "rating": null,
        "hours": null,
        "location": null
    },
    {
        "name": "Caffe Milano",
        "address": "Av. Tiradentes 11, Santo Domingo, República Dominicana",
        "phone": "(809) 540-3000",
        "website": null,
        "category": "Restaurant",
        "rating": null,
        "hours": null,
        "location": null
    },
    {
        "name": "Centro De Comida Empresarial",
        "address": "2-B No 5, Paraíso, Santo Domingo, República Dominicana",
        "phone": "(809) 544-1343",
        "website": null,
        "category": "Restaurant",
        "rating": null,
        "hours": null,
        "location": null
    },
    {
        "name": "Culinary Consulting, S A",
        "address": "Zafiro 9, Santo Domingo, República Dominicana",
        "phone": "(809) 530-8979",
        "website": null,
        "category": "Service",
        "rating": null,
        "hours": null,
        "location": null
    },
    {
        "name": "Domino´s Pizza",
        "address": "Av G Godoy 125, La Vega, República Dominicana",
        "phone": "(809) 242-1515",
        "website": null,
        "category": "Restaurant",
        "rating": null,
        "hours": null,
        "location": null
    },
    {
        "name": "Panadería-Pizzería Las Palmas",
        "address": "C Batista 1, La Vega, República Dominicana",
        "phone": "(809) 242-1212",
        "website": null,
        "category": "Restaurant",
        "rating": null,
        "hours": null,
        "location": null
    },
    {
        "name": "Boli Boli Restaurant",
        "address": "Ave La Confluencia 1, Jarabacoa 41000, República Dominicana",
        "phone": "(809) 574-2164",
        "website": null,
        "category": "Restaurant",
        "rating": null,
        "hours": null,
        "location": null
    },
    {
        "name": "Algusto",
        "address": "C/ Turey, el Cacique, santo domingo, República Dominicana",
        "phone": "(809) 508-1730",
        "website": null,
        "category": "Restaurant",
        "rating": null,
        "hours": null,
        "location": null
    },
    {
        "name": "Churchs Chicken",
        "address": "Plaza Royal, Local 201, Av.M Gomez, esq.J Contreras, Santo Domingo, República Dominicana",
        "phone": "(809) 221-3283",
        "website": null,
        "category": "Restaurant",
        "rating": null,
        "hours": null,
        "location": null
    },
    {
        "name": "Pizza Hut",
        "address": "C Convención L-B1-1, Puerto Plata, República Dominicana",
        "phone": "(809) 320-2000",
        "website": null,
        "category": "Restaurant",
        "rating": null,
        "hours": null,
        "location": null
    },
    {
        "name": "DiversionDominicana",
        "address": "Av. Franco bido S/n Edif. J & G, Nibaje, Santiago de los Caballeros, Santiago, República Dominicana",
        "phone": "(809) 839-1243",
        "website": null,
        "category": "Attraction",
        "rating": null,
        "hours": null,
        "location": null
    },
    {
        "name": "Mediterráneo Ristorante Gourmet",
        "address": "Ave. Enriquillo #52, Los Cacicazgos, Sto.Dgo. RD, Santo Domingo, República Dominicana",
        "phone": "(849) 936-3900",
        "website": null,
        "category": "Restaurant",
        "rating": null,
        "hours": null,
        "location": null
    },
    {
        "name": "Panda Express",
        "address": "Av.27 de febrero No.237, Ens. Naco, Santo Domingo, República Dominicana",
        "phone": "(809) 566-1566",
        "website": null,
        "category": "Restaurant",
        "rating": null,
        "hours": null,
        "location": null
    },
    {
        "name": "El Mesón de Daysi",
        "address": "J de Morfa 88, Santo Domingo, República Dominicana",
        "phone": "(809) 333-6797",
        "website": null,
        "category": "Restaurant",
        "rating": null,
        "hours": null,
        "location": null
    },
    {
        "name": "Mirian Buffets",
        "address": "Juan XIII 18, Santo Domingo, República Dominicana",
        "phone": "(809) 540-0921",
        "website": null,
        "category": "Restaurant",
        "rating": null,
        "hours": null,
        "location": null
    },
    {
        "name": "Deco-Buffet",
        "address": "Calle 2B, No.5 Ens.Paraiso, Santo Domingo, República Dominicana",
        "phone": "(809) 542-6556",
        "website": null,
        "category": "Restaurant",
        "rating": null,
        "hours": null,
        "location": null
    },
    {
        "name": "El Mesón de la Cava",
        "address": "Ave. Mirador del Sur 1, Santo Domingo, República Dominicana",
        "phone": "(809) 533-4840",
        "website": null,
        "category": "Restaurant",
        "rating": null,
        "hours": null,
        "location": null
    },
    {
        "name": "El Meson de la Cava",
        "address": "Av. Mirador del Sur, Santo Domingo, República Dominicana",
        "phone": "(809) 533-2818",
        "website": null,
        "category": "Restaurant",
        "rating": null,
        "hours": null,
        "location": null
    },
    {
        "name": "Restaurant Vesuvio",
        "address": "Av. G Washington 523, Santo Domingo, República Dominicana",
        "phone": "(809) 221-3000",
        "website": null,
        "category": "Restaurant",
        "rating": null,
        "hours": null,
        "location": null
    },
    {
        "name": "Ana Lebrón Linea Gourmet",
        "address": "M Simón 6 A, Santo Domingo, República Dominicana",
        "phone": "(809) 412-0161",
        "website": null,
        "category": "Restaurant",
        "rating": null,
        "hours": null,
        "location": null
    },
    {
        "name": "Ana Lebrón Linea Gourmet",
        "address": "G M Ricart 126, Santo Domingo, República Dominicana",
        "phone": "(809) 412-0161",
        "website": null,
        "category": "Restaurant",
        "rating": null,
        "hours": null,
        "location": null
    },
    {
        "name": "Caffe Milano",
        "address": "Av. Tiradentes 11, Santo Domingo, República Dominicana",
        "phone": "(809) 540-3000",
        "website": null,
        "category": "Restaurant",
        "rating": null,
        "hours": null,
        "location": null
    },
    {
        "name": "Centro De Comida Empresarial",
        "address": "2-B No 5, Paraíso, Santo Domingo, República Dominicana",
        "phone": "(809) 544-1343",
        "website": null,
        "category": "Restaurant",
        "rating": null,
        "hours": null,
        "location": null
    },
    {
        "name": "Culinary Consulting, S A",
        "address": "Zafiro 9, Santo Domingo, República Dominicana",
        "phone": "(809) 530-8979",
        "website": null,
        "category": "Service",
        "rating": null,
        "hours": null,
        "location": null
    },
    {
        "name": "Berry Dominicana",
        "address": "Calle Paseo de los Locutores 41B, Quisqueya, Distrito Nacional SD",
        "phone": "(809) 289-5000",
        "website": null,
        "category": "Business",
        "rating": null,
        "hours": null,
        "location": {
            "lat": 18.4649921,
            "lng": -69.9404937
        }
    },
    {
        "name": "Caribe Media, SA",
        "address": "Av. John F. Kennedy, Galería 360, 2do Nivel, Local 109, Viejo Arroyo Hondo, Distrito Nacional SD",
        "phone": "(809) 220-3100",
        "website": "https://www.caribemedia.com.do",
        "category": "Business",
        "rating": null,
        "hours": [
            {
                "day": "Monday",
                "opens": "8AM",
                "closes": "6PM"
            },
            {
                "day": "Tuesday",
                "opens": "8AM",
                "closes": "6PM"
            },
            {
                "day": "Wednesday",
                "opens": "8AM",
                "closes": "6PM"
            },
            {
                "day": "Thursday",
                "opens": "8AM",
                "closes": "6PM"
            },
            {
                "day": "Friday",
                "opens": "8AM",
                "closes": "5PM"
            }
        ],
        "location": {
            "lat": 18.4852076,
            "lng": -69.9363892
        }
    },
    {
        "name": "Inversiones Gonzalez Cano, SRL",
        "address": "Av L De Vega 81, La Fe, Los Alcarrizos SD",
        "phone": "(809) 566-2666",
        "website": null,
        "category": "Business",
        "rating": null,
        "hours": null,
        "location": null
    },
    {
        "name": "Rodriguez, Victor F",
        "address": "El Conde 403, Los Prados, Distrito Nacional SD",
        "phone": "(809) 687-6536",
        "website": null,
        "category": "Business",
        "rating": null,
        "hours": null,
        "location": null
    }
]